City_ID,City,Lat,Lng,Max Temp,Humidity,Cloudiness,Wind Speed,Country,Date
0,hobart,-42.8794,147.3294,20.03,58,20,5.14,AU,1678493579
1,punta arenas,-53.15,-70.9167,8.06,57,75,6.17,CL,1678493579
2,kapaa,22.0752,-159.319,24.55,65,75,5.66,US,1678493580
3,pemangkat,1.1667,108.9667,24.52,91,97,2.92,ID,1678493580
4,torbay,47.6666,-52.7314,0.88,92,100,4.47,CA,1678493581
5,tautira,-17.7333,-149.15,27.91,79,100,7.64,PF,1678493582
6,kamina,-8.7386,24.9906,17.86,97,98,2.1,CD,1678493583
7,yerbogachen,61.2767,108.0108,-31.88,100,35,1.81,RU,1678493539
8,vaini,-21.2,-175.2,25.83,64,77,6.27,TO,1678493586
9,grand-lahou,5.1367,-5.0242,26.62,85,100,0.52,CI,1678493586
10,yellowknife,62.456,-114.3525,-10.83,92,100,0.53,CA,1678493588
11,georgetown,5.4112,100.3354,26.96,74,20,1.54,MY,1678493572
12,padang,-0.9492,100.3543,25.03,88,61,1.52,ID,1678493590
13,esperance,-33.8667,121.9,19.1,71,23,4.01,AU,1678493591
14,rikitea,-23.1203,-134.9692,26.34,80,1,11.43,PF,1678493592
15,shestakovo,56.4915,103.96,-25.54,100,98,1.93,RU,1678493542
16,bluff,-46.6,168.3333,16.84,69,96,8.71,NZ,1678493594
17,kulhudhuffushi,6.6221,73.07,27.2,77,8,5.56,MV,1678493597
18,kodiak,57.79,-152.4072,5.73,33,0,6.17,US,1678493512
19,neumunster,54.0667,9.9833,0.71,95,100,1.34,DE,1678493598
20,ushuaia,-54.8,-68.3,6.79,88,41,3.24,AR,1678493600
21,maniitsoq,65.4167,-52.9,-8.62,83,92,3.38,GL,1678493601
22,januaria,-15.4833,-44.3667,25.8,52,98,0.69,BR,1678493602
23,qasigiannguit,68.8193,-51.1922,-6.86,73,1,2.92,GL,1678493602
24,husavik,66.0449,-17.3389,-9.81,70,100,9.66,IS,1678493603
25,grajau,-5.8194,-46.1386,23.3,95,86,1.48,BR,1678493604
26,busselton,-33.65,115.3333,17.78,74,33,3.84,AU,1678493605
27,lebu,-37.6167,-73.65,14.7,81,0,4.38,CL,1678493606
28,pisco,-13.7,-76.2167,24.03,83,75,2.57,PE,1678493523
29,klaksvik,62.2266,-6.589,-4.49,59,99,9.98,FO,1678493607
30,port elizabeth,-33.918,25.5701,19.62,95,2,12.07,ZA,1678493608
31,hovd,48.0056,91.6419,-7.77,48,13,0.7,MN,1678493609
32,batticaloa,7.7102,81.6924,25.91,82,100,3.94,LK,1678493610
33,hermanus,-34.4187,19.2345,14.33,74,43,5.34,ZA,1678493611
34,narsaq,60.9167,-46.05,2.12,68,72,4.51,GL,1678493612
35,tuktoyaktuk,69.4541,-133.0374,-22.14,98,93,4.83,CA,1678493613
36,kozhevnikovo,56.2589,83.9714,-5.72,82,64,4.57,RU,1678493614
37,coahuayana,18.7333,-103.6833,24.31,79,77,1.94,MX,1678493615
38,portland,45.5234,-122.6762,8.64,79,75,5.14,US,1678493094
39,valparaiso,-33.0393,-71.6273,15.8,88,75,2.57,CL,1678493617
40,vila velha,-20.3297,-40.2925,25.97,87,40,3.09,BR,1678493618
41,gamba,-2.65,10.0,24.84,88,96,1.04,GA,1678493619
42,oranjemund,-28.55,16.4333,15.91,90,0,2.04,NA,1678493620
43,zhanaozen,43.3,52.8,6.36,88,6,2.25,KZ,1678493620
44,hami,42.8,93.45,2.65,26,0,4.11,CN,1678493474
45,puerto escondido,15.85,-97.0667,27.46,74,0,2.57,MX,1678493622
46,saskylakh,71.9167,114.0833,-31.07,97,53,3.58,RU,1678493623
47,albany,42.6001,-73.9662,3.91,78,100,1.88,US,1678493624
48,puerto ayora,-0.7393,-90.3518,25.31,96,65,1.34,EC,1678493625
49,castro,-24.7911,-50.0119,17.11,99,100,2.68,BR,1678493625
50,san patricio,28.017,-97.5169,27.05,61,89,4.78,US,1678493626
51,waipawa,-41.4122,175.5153,19.0,61,12,2.55,NZ,1678493361
52,hithadhoo,-0.6,73.0833,27.48,74,98,3.12,MV,1678493627
53,mataura,-46.1927,168.8643,20.0,44,98,4.27,NZ,1678493628
54,carnarvon,-24.8667,113.6333,23.76,62,0,8.51,AU,1678493628
55,rize,40.9044,40.8949,1.48,74,89,3.97,TR,1678493629
56,ruteng,-8.6136,120.4721,20.91,71,16,0.41,ID,1678493629
57,westport,41.1415,-73.3579,6.75,81,100,4.63,US,1678493345
58,metro,-5.1131,105.3067,23.52,94,78,2.18,ID,1678493631
59,santa cruz del norte,23.1539,-81.9236,24.37,66,37,4.33,CU,1678493631
60,bambous virieux,-20.3428,57.7575,25.12,84,57,6.54,MU,1678493632
61,chuy,-33.6971,-53.4616,23.19,90,31,5.08,UY,1678493633
62,barrow,71.2906,-156.7887,-11.99,85,100,4.63,US,1678493633
63,varhaug,58.6147,5.6457,-0.62,59,27,2.05,NO,1678493634
64,avarua,-21.2078,-159.775,27.03,78,75,5.66,CK,1678493634
65,azare,11.6765,10.1948,25.88,15,74,4.21,NG,1678493635
66,atuona,-9.8,-139.0333,26.57,73,5,2.76,PF,1678493636
67,port lincoln,-34.7333,135.8667,18.77,72,73,3.94,AU,1678493636
68,sao joao da barra,-21.6403,-41.0511,24.88,86,64,5.96,BR,1678493420
69,nanortalik,60.1432,-45.2371,-3.84,73,9,3.54,GL,1678493637
70,taksimo,56.3444,114.8794,-24.02,82,100,2.55,RU,1678493638
71,tiarei,-17.5333,-149.3333,30.01,80,100,7.5,PF,1678493638
72,ostrovnoy,68.0531,39.5131,-13.73,97,86,4.94,RU,1678493639
73,tabou,4.423,-7.3528,25.62,86,100,1.79,CI,1678493640
74,cabo san lucas,22.8909,-109.9124,31.17,30,0,5.14,MX,1678493640
75,adrar,20.5022,-10.0711,24.15,8,0,4.43,MR,1678493642
76,kavieng,-2.5744,150.7967,28.31,77,100,3.03,PG,1678493642
77,cape town,-33.9258,18.4232,20.21,81,67,1.79,ZA,1678493643
78,jamestown,42.097,-79.2353,0.01,100,100,5.66,US,1678493565
79,hilo,19.7297,-155.09,24.85,76,100,4.12,US,1678493448
80,rio gallegos,-51.6226,-69.2181,12.34,55,100,7.6,AR,1678493645
81,cidreira,-30.1811,-50.2056,24.55,88,3,4.59,BR,1678493646
82,aberdeen,57.1437,-2.0981,0.36,80,40,3.6,GB,1678493647
83,lalmohan,22.3384,90.7419,23.7,49,86,4.43,BD,1678493647
84,souillac,-20.5167,57.5167,25.78,84,71,5.76,MU,1678493648
85,tomatlan,19.9333,-105.25,26.07,62,5,3.44,MX,1678493649
86,nador,35.174,-2.9287,18.14,39,0,0.51,MA,1678493650
87,provideniya,64.3833,-173.3,-0.74,97,100,4.22,RU,1678493651
88,banda aceh,5.5577,95.3222,25.49,81,100,4.4,ID,1678493652
89,bredasdorp,-34.5322,20.0403,16.83,62,47,2.77,ZA,1678493653
90,batemans bay,-35.7167,150.1833,27.04,36,22,0.94,AU,1678493654
91,bismarck,46.8083,-100.7837,-3.09,90,100,11.83,US,1678493655
92,tasiilaq,65.6145,-37.6368,-11.91,90,14,1.87,GL,1678493657
93,killybegs,54.6333,-8.45,1.82,80,100,2.36,IE,1678493658
94,alofi,-19.0595,-169.9187,26.86,77,98,6.85,NU,1678493658
95,zyryanka,65.75,150.85,-22.81,87,12,5.75,RU,1678493550
96,topeka,39.0483,-95.678,3.88,72,20,4.63,US,1678493612
97,sao filipe,14.8961,-24.4956,23.66,67,2,3.37,CV,1678493660
98,isangel,-19.55,169.2667,27.68,65,26,6.31,VU,1678493661
99,khatanga,71.9667,102.5,-32.02,96,91,1.8,RU,1678493662
100,gambela,8.25,34.5833,28.16,44,73,1.56,ET,1678493663
101,boffa,10.1667,-14.0333,24.72,87,38,0.89,GN,1678493664
102,saint-jean-de-braye,47.913,1.9771,4.46,93,100,3.09,FR,1678493665
103,santa maria,-29.6842,-53.8069,26.58,44,14,3.98,BR,1678493666
104,smidovich,48.6,133.8167,-1.48,98,100,2.3,RU,1678493667
105,saint george,37.1041,-113.5841,14.33,63,100,2.57,US,1678493578
106,opuwo,-18.0607,13.84,21.56,45,96,1.33,NA,1678493668
107,nizhniye vyazovyye,55.7988,48.5248,-10.38,98,73,2.71,RU,1678493669
108,nelson bay,-32.7167,152.15,29.49,57,3,0.83,AU,1678493671
109,vanimo,-2.6741,141.3028,26.99,85,98,0.89,PG,1678493672
110,vostok,46.4856,135.8833,-4.95,92,95,1.94,RU,1678493673
111,borovoy,55.4333,86.0833,-6.4,93,0,3.0,RU,1678493674
112,belaya gora,68.5333,146.4167,-26.56,89,69,2.19,RU,1678493675
113,bethel,41.3712,-73.414,5.67,78,100,2.4,US,1678493676
114,bathsheba,13.2167,-59.5167,26.34,73,40,4.12,BB,1678493677
115,chiredzi,-21.05,31.6667,20.13,92,81,0.93,ZW,1678493678
116,nyahururu,0.0421,36.3673,13.16,74,95,3.19,KE,1678493679
117,zhezkazgan,47.8043,67.7144,-0.15,89,100,3.15,KZ,1678493680
118,minab,27.1467,57.0801,22.51,64,96,0.6,IR,1678493681
119,vikhorevka,56.1201,101.1636,-18.23,100,100,1.72,RU,1678493681
120,kavaratti,10.5669,72.642,27.52,71,0,1.98,IN,1678493682
121,severo-yeniseyskiy,60.3725,93.0408,-8.58,91,100,6.83,RU,1678493683
122,thompson,55.7435,-97.8558,-11.43,91,100,2.14,CA,1678493683
123,itoman,26.1247,127.6694,21.21,64,20,5.66,JP,1678493684
124,tuatapere,-46.1333,167.6833,17.0,65,100,2.9,NZ,1678493685
125,lazaro cardenas,17.9583,-102.2,25.95,66,0,5.23,MX,1678493685
126,nikolskoye,59.7035,30.7861,-13.06,99,31,2.0,RU,1678493686
127,la orilla,17.9833,-102.2333,25.89,66,0,5.21,MX,1678493686
128,pochutla,15.7432,-96.4661,28.23,59,52,2.66,MX,1678493687
129,kutum,14.2,24.6667,19.72,15,93,2.91,SD,1678493687
130,lawrenceburg,38.0373,-84.8966,4.75,73,100,5.66,US,1678493688
131,sterling,39.0062,-77.4286,6.96,92,75,2.06,US,1678493554
132,kuldur,49.2167,131.6333,-4.03,84,100,3.83,RU,1678493546
133,lompoc,34.6391,-120.4579,14.32,84,100,6.17,US,1678493418
134,tabira,-7.5908,-37.5394,26.61,49,99,3.07,BR,1678493690
135,medeiros neto,-17.3739,-40.2206,22.08,82,14,3.62,BR,1678493692
136,morros,-9.4467,-46.3003,25.01,66,33,2.23,BR,1678493693
137,mehamn,71.0357,27.8492,-8.05,67,0,9.77,NO,1678493693
138,shelburne,44.0787,-80.2041,-3.47,92,100,6.36,CA,1678493694
139,frederico westphalen,-27.3592,-53.3944,25.25,63,8,0.83,BR,1678493694
140,phan thiet,10.9333,108.1,21.72,76,12,3.23,VN,1678493695
141,talnakh,69.4865,88.3972,-13.77,95,100,5.33,RU,1678493696
142,axim,4.8699,-2.2405,26.83,84,99,2.76,GH,1678493697
143,la colorada,8.0167,-80.9833,28.69,55,87,1.87,PA,1678493697
144,yar-sale,66.8333,70.8333,-16.47,96,79,2.78,RU,1678493698
145,constitucion,-35.3333,-72.4167,13.09,77,19,2.0,CL,1678493699
146,vao,-22.6667,167.4833,24.98,73,52,5.68,NC,1678493699
147,ponta do sol,32.6667,-17.1,19.84,79,13,1.89,PT,1678493700
148,qaanaaq,77.484,-69.3632,-12.4,62,97,2.78,GL,1678493701
149,upernavik,72.7868,-56.1549,-20.0,66,3,1.16,GL,1678493701
150,faanui,-16.4833,-151.75,27.89,77,46,7.18,PF,1678493705
151,goderich,43.7501,-81.7165,-1.16,87,99,9.86,CA,1678493706
152,fort nelson,58.8053,-122.7002,-13.92,62,75,4.12,CA,1678493707
153,zonguldak,41.25,31.8333,9.79,71,100,2.53,TR,1678493708
154,paragould,36.0584,-90.4973,12.96,63,62,2.29,US,1678493607
155,preston,53.7667,-2.7167,1.03,88,85,1.93,GB,1678493709
156,haines junction,60.7522,-137.5108,-6.68,65,100,3.17,CA,1678493710
157,margate,51.3813,1.3862,2.05,77,91,0.45,GB,1678493711
158,itarema,-2.9248,-39.9167,25.74,82,99,3.67,BR,1678493711
159,mar del plata,-38.0023,-57.5575,22.27,87,100,0.89,AR,1678493712
160,ejido,8.5514,-71.2375,20.31,98,100,0.61,VE,1678493714
161,linden,6.0,-58.3,23.49,80,58,2.36,GY,1678493715
162,kaitangata,-46.2817,169.8464,19.98,46,93,3.73,NZ,1678493718
163,kruisfontein,-34.0033,24.7314,16.6,90,0,3.73,ZA,1678493724
164,honghu,29.8206,113.4621,17.95,72,100,1.18,CN,1678493725
165,hasaki,35.7333,140.8333,14.05,48,0,3.94,JP,1678493726
166,mana,5.6592,-53.7767,25.19,78,84,4.57,GF,1678493727
167,zeya,53.75,127.2667,-5.23,94,100,5.4,RU,1678493728
168,makakilo city,21.3469,-158.0858,25.38,58,40,4.63,US,1678493731
169,zhigalovo,54.8097,105.1578,-27.04,100,94,0.75,RU,1678493733
170,jalu,29.0331,21.5482,19.68,33,0,4.96,LY,1678493734
171,petropavlovsk-kamchatskiy,53.0452,158.6483,-5.68,63,40,2.0,RU,1678493735
172,darab,28.7519,54.5444,15.12,48,72,1.42,IR,1678493736
173,xining,36.6167,101.7667,-1.02,69,91,2.32,CN,1678493738
174,nizhniy ingash,56.2,96.53,-10.58,73,100,2.77,RU,1678493738
175,nome,64.5011,-165.4064,-11.02,67,0,0.0,US,1678493739
176,jardim,-21.4803,-56.1381,23.16,91,7,0.98,BR,1678493740
177,east london,-33.0153,27.9116,22.55,67,3,3.03,ZA,1678493741
178,te anau,-45.4167,167.7167,13.52,86,100,2.69,NZ,1678493742
179,ushtobe,45.2514,77.9838,6.31,37,43,2.64,KZ,1678493743
180,videira,-27.0083,-51.1517,18.73,98,100,1.19,BR,1678493606
181,moindou,-21.6924,165.677,27.98,60,9,3.06,NC,1678493744
182,tirthahalli,13.7,75.2333,17.69,40,0,1.7,IN,1678493745
183,mongu,-15.2484,23.1274,20.33,85,97,1.03,ZM,1678493745
184,san cristobal,7.7669,-72.225,20.1,97,99,1.55,VE,1678493746
185,zabaykalsk,49.6333,117.3167,-16.38,75,3,11.72,RU,1678493747
186,butaritari,3.0707,172.7902,27.57,78,22,6.35,KI,1678493748
187,berlevag,70.8578,29.0864,-8.03,53,40,10.29,NO,1678493748
188,raudeberg,61.9875,5.1352,-2.25,64,97,4.36,NO,1678493749
189,maragheh,37.3917,46.2398,4.39,79,7,1.38,IR,1678493749
190,codrington,-38.2667,141.9667,17.53,64,37,2.26,AU,1678493750
191,bengkulu,-3.8004,102.2655,23.72,94,100,0.79,ID,1678493751
192,thyboron,56.6985,8.2124,-2.7,88,100,6.64,DK,1678493751
193,cabedelo,-6.9811,-34.8339,27.37,78,53,4.78,BR,1678493504
194,mangaratiba,-22.9597,-44.0406,24.35,91,100,0.9,BR,1678493752
195,atherton,53.5237,-2.4935,0.79,84,74,1.48,GB,1678493753
196,thinadhoo,0.5333,72.9333,27.24,73,98,2.31,MV,1678493754
197,new norfolk,-42.7826,147.0587,19.84,59,80,3.13,AU,1678493754
198,pangody,65.85,74.4859,-12.12,98,89,3.31,RU,1678493755
199,yulara,-25.2406,130.9889,27.39,20,0,4.39,AU,1678493756
200,bastia,42.6667,9.3333,16.28,50,0,3.09,FR,1678493756
201,havoysund,70.9963,24.6622,-5.87,64,97,15.2,NO,1678493684
202,turukhansk,65.8167,87.9833,-10.17,93,100,5.51,RU,1678493757
203,ambon,-3.6954,128.1814,28.08,83,40,1.54,ID,1678493758
204,toora-khem,52.4675,96.11,-24.41,100,80,0.79,RU,1678493758
205,demyansk,57.643,32.466,-11.86,90,70,3.53,RU,1678493760
206,ilula,-7.6766,36.0366,16.42,98,100,0.7,TZ,1678493761
207,manggar,-2.8833,108.2667,25.19,83,90,1.74,ID,1678493707
208,ukiah,39.1502,-123.2078,14.69,41,0,2.06,US,1678493656
209,helong,42.5397,128.9972,4.62,66,75,1.61,CN,1678493764
210,dzaoudzi,-12.7887,45.2699,26.94,78,20,1.54,YT,1678493765
211,saint-junien,45.8833,0.9,12.69,98,100,5.5,FR,1678493765
212,victoria,22.2855,114.1577,21.81,75,64,2.24,HK,1678493766
213,san angelo,31.4638,-100.437,19.5,68,40,3.58,US,1678493767
214,vieste,41.8825,16.175,13.37,74,54,2.87,IT,1678493768
215,durban,-29.8579,31.0292,23.9,94,0,1.79,ZA,1678493624
216,gap,44.6667,6.0,-3.98,91,99,1.17,FR,1678493769
217,santa cruz,-17.8,-63.1667,25.7,83,30,2.06,BO,1678493505
218,port alfred,-33.5906,26.891,20.1,92,8,1.79,ZA,1678493771
219,coihaique,-45.5752,-72.0662,12.97,94,100,4.63,CL,1678493771
220,krasnogorskiy,54.6025,61.231,-2.38,90,34,5.55,RU,1678493772
221,rosetta,31.4044,30.4164,15.99,82,0,1.23,EG,1678493773
222,kuching,1.55,110.3333,26.12,94,40,2.24,MY,1678493773
223,dovolnoye,54.4958,79.6671,-5.82,78,86,5.16,RU,1678493774
224,tura,25.5198,90.2201,20.6,27,51,1.22,IN,1678493775
225,srednekolymsk,67.45,153.6833,-22.98,84,11,1.49,RU,1678493552
226,puri,19.8,85.85,23.29,74,82,1.9,IN,1678493653
227,saint-philippe,-21.3585,55.7679,24.77,85,62,4.98,RE,1678493777
228,bontang,0.1333,117.5,24.98,87,95,2.41,ID,1678493778
229,pimentel,-6.8367,-79.9342,25.16,88,100,4.12,PE,1678493779
230,katsuura,35.1333,140.3,14.9,56,0,4.71,JP,1678493780
231,galesong,-5.3166,119.3661,28.01,80,97,1.25,ID,1678493781
232,yarkovo,57.4028,67.0786,-1.7,79,93,5.99,RU,1678493781
233,port-gentil,-0.7193,8.7815,27.15,80,99,3.92,GA,1678493782
234,amudat,1.95,34.95,23.53,48,85,2.17,UG,1678493784
235,bonavista,48.6499,-53.1147,-0.1,97,100,10.57,CA,1678493784
236,lubao,14.9167,120.55,25.84,64,5,4.58,PH,1678493785
237,kothen,51.75,11.9667,1.72,85,100,11.57,DE,1678493786
238,iralaya,15.0,-83.2333,24.77,70,9,3.26,HN,1678493786
239,nuuk,64.1835,-51.7216,-6.81,89,83,3.35,GL,1678493787
240,balkanabat,39.5108,54.3671,11.61,63,41,3.29,TM,1678493788
241,leninskoye,41.7589,69.3864,16.73,42,99,1.88,KZ,1678493789
242,paamiut,61.994,-49.6678,-5.82,79,89,3.04,GL,1678493790
243,dikson,73.5069,80.5464,-19.14,87,99,5.21,RU,1678493790
244,eenhana,-17.4667,16.3333,20.42,83,90,3.82,NA,1678493791
245,verkhoyansk,67.5447,133.385,-24.18,98,90,1.07,RU,1678493792
246,jutai,-5.1833,-68.9,23.12,98,100,1.3,BR,1678493792
247,russell,32.3502,-85.1999,16.22,67,100,3.24,US,1678493724
248,myitkyina,25.3833,97.4,17.11,48,71,0.81,MM,1678493793
249,tezu,27.9167,96.1667,18.36,29,21,2.0,IN,1678493794
250,karangasem,-8.45,115.6167,26.71,77,43,2.44,ID,1678493794
251,challapata,-18.9,-66.7667,12.3,57,85,4.28,BO,1678493795
252,lasa,46.6166,10.7002,6.49,92,96,3.02,IT,1678493796
253,malartic,48.1335,-78.1328,-5.94,93,100,4.83,CA,1678493796
254,atambua,-9.1061,124.8925,25.06,80,4,0.45,ID,1678493797
255,vestmannaeyjar,63.4427,-20.2734,-7.64,50,21,4.94,IS,1678493798
256,havelock,34.8791,-76.9013,15.53,88,100,3.09,US,1678493798
257,northam,51.0333,-4.2167,3.67,83,100,5.02,GB,1678493799
258,manokwari,-0.8667,134.0833,27.64,75,74,2.19,ID,1678493800
259,chokurdakh,70.6333,147.9167,-29.75,91,21,3.46,RU,1678493800
260,tunceli,39.1083,39.5471,8.05,89,100,1.31,TR,1678493801
261,joacaba,-27.1781,-51.5047,20.33,88,98,1.21,BR,1678493802
262,ballina,-28.8667,153.5667,27.66,83,93,0.89,AU,1678493802
263,hadejia,12.4498,10.0444,27.03,14,90,3.68,NG,1678493803
264,mahebourg,-20.4081,57.7,26.16,83,75,2.06,MU,1678493803
265,prince rupert,54.3161,-130.3201,4.58,59,100,0.68,CA,1678493703
266,luderitz,-26.6481,15.1594,15.91,90,0,4.39,NA,1678493804
267,tiksi,71.6872,128.8694,-18.75,97,100,0.64,RU,1678493806
268,severo-kurilsk,50.6789,156.125,-0.53,84,100,2.38,RU,1678493807
269,port blair,11.6667,92.75,24.02,94,40,1.03,IN,1678493808
270,ninghai,29.2892,121.4247,14.46,74,100,1.53,CN,1678493808
271,joao pinheiro,-17.7425,-46.1725,21.93,72,88,1.38,BR,1678493809
272,beringovskiy,63.05,179.3167,-5.53,92,100,2.18,RU,1678493810
273,yelizovo,53.1873,158.3805,-4.92,57,40,2.0,RU,1678493811
274,alice springs,-23.7,133.8833,27.75,23,0,3.6,AU,1678493811
275,cherskiy,68.75,161.3,-27.45,97,98,2.12,RU,1678493812
276,maragogi,-9.0122,-35.2225,26.41,77,43,3.28,BR,1678493320
277,medea,36.2642,2.7539,9.14,68,85,1.56,DZ,1678493813
278,dubai,25.2582,55.3047,26.96,29,0,3.09,AE,1678493548
279,santa helena,-2.2311,-45.3,23.62,95,100,0.78,BR,1678493814
280,arraial do cabo,-22.9661,-42.0278,24.98,88,0,7.2,BR,1678493815
281,abonnema,4.7084,6.7931,26.7,82,78,1.65,NG,1678493815
282,brantford,43.1334,-80.2664,-1.21,88,100,1.34,CA,1678493698
283,loubomo,-4.1997,12.6739,22.36,97,100,1.29,CG,1678493816
284,asau,46.4333,26.4,6.51,78,100,1.53,RO,1678493817
285,jiuquan,39.7432,98.5174,-0.93,26,74,2.54,CN,1678493818
286,usak,38.5,29.4167,8.67,79,86,3.72,TR,1678493818
287,buala,-8.145,159.5921,27.95,78,100,1.63,SB,1678493819
288,pozo colorado,-23.4923,-58.7972,25.24,84,51,2.58,PY,1678493819
289,rocha,-34.4833,-54.3333,23.29,91,66,4.35,UY,1678493820
290,kahului,20.8947,-156.47,26.65,53,20,3.6,US,1678493821
291,vila,42.0304,-8.1588,9.49,4,100,2.92,PT,1678493821
292,samoded,63.6083,40.5111,-11.11,95,48,2.93,RU,1678493823
293,simojovel,17.1391,-92.7103,21.23,95,58,0.29,MX,1678493824
294,sorgun,39.8101,35.186,8.11,67,92,4.7,TR,1678493825
295,broken hill,-31.95,141.4333,25.84,25,8,2.89,AU,1678493826
296,muros,42.7762,-9.0603,15.61,91,100,6.64,ES,1678493827
297,marzuq,14.4,46.4667,17.66,76,30,2.66,YE,1678493828
298,ajaccio,42.0,8.9167,15.03,67,75,3.09,FR,1678493829
299,antofagasta,-23.65,-70.4,21.6,85,27,1.53,CL,1678493829
300,bowen,-20.0167,148.2333,28.53,73,1,3.46,AU,1678493831
301,norman wells,65.282,-126.8329,-14.98,72,100,7.2,CA,1678493832
302,meulaboh,4.1363,96.1285,24.0,89,89,1.33,ID,1678493832
303,ranong,9.9658,98.6348,24.96,85,59,1.43,TH,1678493833
304,dunedin,-45.8742,170.5036,19.44,54,89,1.64,NZ,1678493834
305,fortuna,40.5982,-124.1573,12.03,64,0,4.12,US,1678493835
306,baft,29.234,56.6057,8.96,58,93,2.79,IR,1678493836
307,olafsvik,64.8945,-23.7142,-6.63,58,100,9.02,IS,1678493837
308,juneau,58.3019,-134.4197,-0.33,100,81,4.35,US,1678493837
309,shumyachi,53.8583,32.4242,-3.8,94,100,7.03,RU,1678493839
310,kushima,31.4583,131.2333,18.21,68,1,0.96,JP,1678493840
311,kirakira,-10.4544,161.9205,27.1,82,100,4.28,SB,1678493841
312,baykit,61.67,96.37,-13.09,97,100,2.83,RU,1678493842
313,zhigansk,66.7697,123.3711,-19.33,97,100,6.83,RU,1678493844
314,lagoa,39.05,-27.9833,15.65,90,83,4.44,PT,1678493845
315,pundaguitan,6.3711,126.1689,26.88,74,80,1.65,PH,1678493846
316,veraval,20.9,70.3667,24.57,36,0,4.71,IN,1678493846
317,misratah,32.3754,15.0925,17.68,74,6,5.55,LY,1678493847
318,palauig,15.435,119.9045,25.96,61,9,1.75,PH,1678493848
319,morehead,37.2711,-87.1764,6.11,62,40,3.09,US,1678493848
320,camacha,33.0833,-16.3333,16.68,82,40,3.6,PT,1678493849
321,saint-augustin,51.226,-58.6502,-0.82,73,29,8.2,CA,1678493850
322,linkou,45.3,130.2833,1.92,41,94,3.35,CN,1678493851
323,anadyr,64.75,177.4833,-10.72,73,40,6.0,RU,1678493852
324,havre-saint-pierre,50.2334,-63.5986,-0.8,55,100,6.17,CA,1678493853
325,hammerfest,70.6634,23.6821,-4.75,63,40,7.2,NO,1678493854
326,benghazi,32.1167,20.0667,18.84,59,78,2.11,LY,1678493855
327,tshela,-4.9833,12.9333,22.71,100,100,0.48,CD,1678493856
328,ahuimanu,21.4447,-157.8378,26.03,60,75,2.57,US,1678493857
329,bandarbeyla,9.4942,50.8122,26.41,69,43,4.8,SO,1678493858
330,valdivia,-39.8142,-73.2459,17.05,91,13,1.24,CL,1678493801
331,ancud,-41.8697,-73.8203,15.49,76,100,6.5,CL,1678493860
332,seoul,37.5683,126.9778,12.76,71,51,0.51,KR,1678493860
333,riyadh,24.6877,46.7219,15.08,65,50,4.39,SA,1678493737
334,alekseyevskaya,50.2896,42.1845,1.01,82,99,2.79,RU,1678493861
335,davidson,36.1501,-86.7833,10.21,54,75,4.12,US,1678493862
336,blagoyevo,63.3667,47.9167,-20.08,100,91,1.45,RU,1678493863
337,la ronge,55.1001,-105.2842,-8.58,87,100,5.11,CA,1678493720
338,oum hadjer,13.2954,19.6966,26.19,11,100,4.38,TD,1678493864
339,presidente medici,-11.1753,-61.9014,23.0,94,98,1.41,BR,1678493865
340,namatanai,-3.6667,152.4333,28.95,71,96,1.81,PG,1678493866
341,lourdes,43.1,-0.05,18.71,48,100,7.2,FR,1678493760
342,nerchinskiy zavod,51.3088,119.61,-14.96,80,100,7.72,RU,1678493867
343,akdepe,42.0551,59.3788,10.05,79,100,3.84,TM,1678493867
344,xichang,27.8964,102.2634,10.47,78,30,0.61,CN,1678493868
345,muli,2.9167,73.5667,27.26,77,92,5.68,MV,1678493868
346,batabano,22.7164,-82.2881,25.34,67,1,1.77,CU,1678493869
347,rafraf,37.1904,10.1837,15.17,79,82,11.58,TN,1678493870
348,darhan,49.4867,105.9228,-14.33,85,46,2.39,MN,1678493870
349,hailar,49.2,119.7,-15.15,73,5,10.49,CN,1678493871
350,trabzon,40.9167,39.8333,9.05,66,75,2.06,TR,1678493872
351,airai,-8.9266,125.4092,19.55,67,4,0.48,TL,1678493872
352,tahta,26.7693,31.5021,18.27,29,0,2.3,EG,1678493873
353,atasu,48.6814,71.6433,-0.92,82,100,3.02,KZ,1678493874
354,nikolayevka,53.1257,47.2041,-3.07,91,69,2.77,RU,1678493875
355,nchelenge,-9.3451,28.734,21.81,85,99,2.93,ZM,1678493877
356,pangnirtung,66.1451,-65.7125,-15.68,71,3,2.4,CA,1678493878
357,baherden,38.4362,57.4316,14.2,84,99,0.82,TM,1678493878
358,aurillac,44.9167,2.45,9.49,95,100,4.12,FR,1678493879
359,caldwell,43.6629,-116.6874,9.93,39,75,12.35,US,1678493880
360,sohag,26.557,31.6948,18.23,27,0,2.87,EG,1678493881
361,avera,33.194,-82.5271,15.21,69,100,5.23,US,1678493882
362,oktyabrskiy,54.4815,53.471,-2.68,88,95,4.82,RU,1678493883
363,ambunti,-4.2365,142.8448,27.92,79,98,0.41,PG,1678493884
364,bayangol,50.6977,103.4656,-23.86,95,17,1.26,RU,1678493884
365,aberystwyth,52.4155,-4.0829,-1.17,84,89,4.25,GB,1678493886
366,enshi,30.3,109.4833,11.86,90,61,0.73,CN,1678493887
367,mecca,21.4267,39.8261,22.62,47,81,2.77,SA,1678493817
368,tegh,39.5579,46.4772,4.89,53,38,3.46,AM,1678493888
369,pevek,69.7008,170.3133,-26.91,100,97,1.64,RU,1678493889
370,salalah,17.0151,54.0924,24.05,64,0,1.54,OM,1678493889
371,ilulissat,69.2167,-51.1,-6.99,42,0,7.72,GL,1678493890
372,galle,6.0367,80.217,24.4,84,97,2.04,LK,1678493891
373,kununurra,-15.7667,128.7333,29.99,66,27,2.57,AU,1678493892
374,gat,31.61,34.7642,15.22,32,0,2.05,IL,1678493893
375,ozinki,51.1786,49.6769,1.64,95,93,4.66,RU,1678493894
376,mae chan,20.1467,99.8526,20.13,41,100,0.51,TH,1678493895
377,cap malheureux,-19.9842,57.6142,25.26,82,12,0.89,MU,1678493896
378,sitka,57.0531,-135.33,1.94,30,75,4.12,US,1678493897
379,skibbereen,51.55,-9.2667,5.06,98,100,8.44,IE,1678493899
380,moussoro,13.6408,16.4901,25.92,13,95,4.43,TD,1678493899
381,ambositra,-20.5167,47.25,15.27,96,100,0.83,MG,1678493900
382,general roca,-39.0333,-67.5833,27.01,40,46,6.05,AR,1678493901
383,mayo,38.8876,-76.5119,7.84,91,100,2.06,US,1678493902
384,lata,40.1629,-8.3327,15.04,98,100,1.41,PT,1678493903
385,onega,63.9061,38.1404,-10.94,96,79,3.07,RU,1678493904
386,kamenka,51.3223,42.7678,-2.06,88,78,2.81,RU,1678493905
387,rossosh,51.1209,38.5116,-0.56,83,64,3.26,RU,1678493906
388,nouadhibou,20.931,-17.0347,19.99,73,0,6.17,MR,1678493907
389,aras,42.5617,-2.356,13.24,62,0,3.6,ES,1678493908
390,tortoli,39.9256,9.6572,18.9,48,0,12.35,IT,1678493909
391,martinsicuro,42.8811,13.9145,12.33,69,53,2.88,IT,1678493910
392,booue,-0.0921,11.9385,22.14,98,87,1.69,GA,1678493912
393,daru,-9.0763,143.2092,28.05,78,99,1.53,PG,1678493912
394,bridlington,54.0831,-0.1919,0.01,83,49,0.45,GB,1678493913
395,nalut,30.3333,10.85,16.4,41,7,3.91,LY,1678493914
396,nsoko,-27.0333,31.95,21.17,98,8,0.89,SZ,1678493915
397,damietta,31.4165,31.8133,16.5,58,0,2.81,EG,1678493916
398,roma,43.2128,-75.4557,1.64,93,100,3.09,US,1678493917
399,dodge city,37.7528,-100.0171,13.3,53,0,9.26,US,1678493917
400,madimba,-10.4,40.3333,26.76,75,83,5.14,TZ,1678493918
401,mount isa,-20.7333,139.5,25.87,89,75,3.09,AU,1678493919
402,klisura,42.7,24.45,7.63,94,76,1.85,BG,1678493920
403,pathein,16.7833,94.7333,24.42,70,99,3.15,MM,1678493920
404,igarka,67.4667,86.5833,-10.78,93,100,7.26,RU,1678493921
405,san rafael del sur,11.8485,-86.4384,29.54,51,44,6.82,NI,1678493922
406,yumen,40.2833,97.2,-1.71,29,34,4.35,CN,1678493923
407,san vicente,-26.6167,-54.1333,21.54,72,80,0.8,AR,1678493924
408,ola,59.5833,151.2833,-16.36,87,48,1.49,RU,1678493925
409,lorengau,-2.0226,147.2712,28.88,70,88,1.2,PG,1678493925
410,kimovsk,53.9716,38.5319,-9.36,95,99,2.54,RU,1678493926
411,grindavik,63.8424,-22.4338,-8.74,45,20,8.75,IS,1678493927
412,vieques,18.425,-65.8329,24.71,69,40,3.09,PR,1678493927
413,sokna,60.24,9.9235,-12.18,93,78,1.36,NO,1678493928
414,tokonou,9.65,-9.7833,25.58,16,86,0.68,GN,1678493928
415,hargeysa,9.56,44.065,17.96,87,8,1.84,SO,1678493929
416,ahipara,-35.1667,173.1667,21.1,58,7,5.46,NZ,1678493930
417,pailon,-17.65,-62.75,26.5,89,75,1.7,BO,1678493931
418,quchan,37.106,58.5095,10.51,83,100,0.51,IR,1678493931
419,whitehorse,60.7161,-135.0538,-8.32,56,75,5.14,CA,1678493932
420,koumac,-20.5667,164.2833,27.84,66,41,2.03,NC,1678493933
421,kulebaki,55.4133,42.5325,-16.08,100,88,0.38,RU,1678493933
422,lashio,22.9333,97.75,15.25,50,74,0.68,MM,1678493934
423,skala fourkas,39.9998,23.3841,16.31,66,39,12.07,GR,1678493935
424,asfi,32.2994,-9.2372,15.97,82,1,7.8,MA,1678493935
425,caravelas,-17.7125,-39.2481,24.0,84,21,2.25,BR,1678493936
426,hofn,64.2539,-15.2082,-10.15,67,3,8.83,IS,1678493937
427,saint-pierre,-21.3393,55.4781,24.95,73,0,3.09,RE,1678493905
428,sidney,-33.8679,151.2073,29.62,60,0,4.12,AU,1678493663
429,verkhnevilyuysk,63.4453,120.3167,-24.35,97,75,2.47,RU,1678493938
430,soyo,-6.1349,12.3689,26.3,87,100,1.85,AO,1678493639
431,dakar,14.6937,-17.4441,24.49,68,0,5.96,SN,1678493701
432,loreto,22.2667,-101.9667,26.73,13,5,1.75,MX,1678493939
433,penalva,-3.2942,-45.1736,23.68,93,100,0.93,BR,1678493940
434,broome,42.2506,-75.833,1.5,95,100,4.12,US,1678493941
435,okha,53.5739,142.9478,-6.51,89,90,7.06,RU,1678493942
436,kodino,63.7198,39.6447,-12.08,97,66,2.85,RU,1678493942
437,abbeville,50.1,1.8333,0.83,82,100,1.04,FR,1678493943
438,bilibino,68.0546,166.4372,-22.95,94,88,0.93,RU,1678493944
439,glenwood springs,39.5505,-107.3248,5.57,89,100,8.75,US,1678493945
440,san jose,37.3394,-121.895,15.17,88,75,0.89,US,1678493687
441,methoni,36.8197,21.7049,16.23,86,77,7.03,GR,1678493947
442,clyde river,70.4692,-68.5914,-17.87,85,75,7.2,CA,1678493947
443,ribeira grande,38.5167,-28.7,16.54,96,72,4.47,PT,1678493948
444,eyl,7.9803,49.8164,25.24,81,7,4.84,SO,1678493951
445,michigan city,41.7075,-86.895,2.34,93,100,3.6,US,1678493952
446,tessalit,20.1986,1.0114,28.63,12,31,3.8,ML,1678493953
447,tilichiki,60.4667,166.1,-13.13,71,100,2.93,RU,1678493954
448,kudahuvadhoo,2.6708,72.8944,26.81,79,71,4.62,MV,1678493955
449,kilindoni,-7.9139,39.6668,27.34,79,100,6.5,TZ,1678493956
450,manavalakurichi,8.1333,77.3,24.35,71,57,2.5,IN,1678493958
451,whitefish,48.4111,-114.3376,-1.55,87,100,6.17,US,1678493804
452,hvide sande,56.0045,8.1294,-1.06,70,100,8.06,DK,1678493960
453,muddebihal,16.3333,76.1333,22.11,44,0,2.72,IN,1678493961
454,ljungby,56.8332,13.9408,-2.77,87,100,2.67,SE,1678493961
455,diffa,13.3154,12.6113,26.34,18,81,4.39,NE,1678493962
456,asosa,10.0667,34.5333,20.96,29,69,1.6,ET,1678493963
457,taltal,-25.4,-70.4833,20.16,85,27,1.38,CL,1678493964
458,aklavik,68.2191,-135.0107,-13.0,56,20,1.03,CA,1678493965
459,skjervoy,70.0311,20.9714,-5.0,69,72,10.29,NO,1678493968
460,houston,29.7633,-95.3633,26.7,64,40,4.63,US,1678493353
461,chaman,30.9236,66.4512,16.51,29,71,1.29,PK,1678493970
462,balikpapan,-1.2675,116.8289,27.55,89,20,1.54,ID,1678493971
463,basti,26.8,82.7167,17.46,38,1,1.67,IN,1678493972
464,hobyo,5.3505,48.5268,26.19,84,53,7.15,SO,1678493973
465,shipitsyno,61.2806,46.5208,-18.42,99,65,1.75,RU,1678493974
466,starobaltachevo,56.0013,55.9213,-1.59,82,100,7.55,RU,1678493974
467,christchurch,-43.5333,172.6333,23.6,53,55,4.12,NZ,1678493837
468,awjilah,29.1081,21.2869,20.07,32,0,4.81,LY,1678493976
469,oda,35.1833,132.5,10.43,71,0,1.89,JP,1678493977
470,komsomolskiy,40.4272,71.7189,9.4,76,97,3.09,UZ,1678493906
471,richards bay,-28.783,32.0377,22.43,96,2,3.15,ZA,1678493978
472,podyuga,61.095,40.8647,-15.24,97,38,2.27,RU,1678493979
473,santa rosa,14.3122,121.1114,26.72,68,1,5.5,PH,1678493979
474,egvekinot,66.3167,-179.1667,-9.55,92,100,0.81,RU,1678493980
475,road town,18.4167,-64.6167,25.02,61,40,4.12,VG,1678493841
476,mount gambier,-37.8333,140.7667,18.38,57,27,1.3,AU,1678493981
477,micheweni,-4.9667,39.8333,26.82,78,84,5.75,TZ,1678493982
478,qingdao,36.0986,120.3719,9.78,66,98,4.0,CN,1678493982
479,joshimath,30.5667,79.5667,7.76,32,0,3.37,IN,1678493983
480,kloulklubed,7.0419,134.2556,24.28,80,75,5.2,PW,1678493984
481,guerrero negro,27.9769,-114.0611,17.08,61,9,9.53,MX,1678493984
482,sibolga,1.7427,98.7792,23.85,91,92,1.13,ID,1678493985
483,lincoln,40.8,-96.667,1.27,80,100,5.66,US,1678493986
484,port hardy,50.6996,-127.4199,5.38,67,34,3.38,CA,1678493717
485,nemuro,43.3236,145.575,-0.07,83,44,7.06,JP,1678493987
486,flinders,-34.5833,150.8552,28.92,67,28,1.79,AU,1678493988
487,durant,33.994,-96.3708,16.09,53,0,1.54,US,1678493988
488,pinega,64.7001,43.3936,-15.19,98,78,2.43,RU,1678493989
489,high rock,26.6208,-78.2833,22.01,63,55,5.78,BS,1678493991
490,horodnya,51.8909,31.5974,1.85,83,82,6.17,UA,1678493992
491,loandjili,-4.7561,11.8578,25.82,88,100,1.75,CG,1678493992
492,suining,30.508,105.5733,15.51,79,73,0.91,CN,1678493993
493,ust-maya,60.4167,134.5333,-9.51,80,100,4.68,RU,1678493994
494,vardo,70.3705,31.1107,-12.01,79,7,8.75,NO,1678493995
495,sabzevar,36.2126,57.6819,14.61,68,100,0.67,IR,1678493995
496,yantal,56.8471,105.2542,-25.88,100,100,1.87,RU,1678493996
497,oconomowoc,43.1117,-88.4993,0.58,84,100,2.57,US,1678493722
498,mocajuba,-2.5842,-49.5072,23.53,96,98,1.62,BR,1678493997
499,ihosy,-22.4,46.1167,19.2,95,100,2.3,MG,1678493998
500,gari,59.4307,62.3497,2.38,91,100,7.33,RU,1678493998
501,sisimiut,66.9395,-53.6735,-12.64,82,31,3.13,GL,1678493999
502,naze,28.3667,129.4833,20.51,65,9,6.68,JP,1678493860
503,garmsar,35.2182,52.3409,12.67,50,47,3.23,IR,1678494000
504,malakal,9.5334,31.6605,27.75,15,53,2.78,SS,1678494001
505,gravdal,68.1214,13.5031,-1.68,42,86,6.99,NO,1678494002
506,verkhniy fiagdon,42.8333,44.3053,-3.63,78,62,4.16,RU,1678494003
507,quatre cocos,-20.2078,57.7625,26.06,84,48,6.64,MU,1678494005
508,sinnamary,5.3833,-52.95,25.15,82,89,5.13,GF,1678494006
509,omsukchan,62.5333,155.8,-14.91,72,1,0.94,RU,1678494007
510,fairbanks,64.8378,-147.7164,-3.99,76,20,1.54,US,1678493759
511,luganville,-15.5333,167.1667,28.0,77,97,3.58,VU,1678494010
512,churhat,24.428,81.6703,19.13,37,0,1.29,IN,1678494012
513,taoudenni,22.6783,-3.9836,28.73,9,0,10.02,ML,1678494013
514,plouzane,48.3833,-4.6167,5.1,96,100,4.63,FR,1678494014
515,diamond bar,34.0286,-117.8103,13.97,95,75,1.54,US,1678493831
516,santa isabel do rio negro,-0.4139,-65.0192,23.89,96,97,0.83,BR,1678494015
517,formosa,-26.1775,-58.1781,30.54,59,0,2.57,AR,1678494016
518,rawson,-43.3002,-65.1023,20.86,48,90,11.74,AR,1678493895
519,hualmay,-11.0964,-77.6139,24.39,73,99,1.03,PE,1678494018
520,san ignacio,17.1561,-89.0714,25.84,63,23,3.49,BZ,1678494019
521,pangoa,-12.1167,-73.0,20.66,99,100,0.41,PE,1678494020
522,fare,-16.7,-151.0167,28.55,73,96,7.69,PF,1678494021
523,madisonville,37.3281,-87.4989,7.34,59,52,2.24,US,1678494022
524,starobesheve,47.7504,38.0305,5.79,96,35,3.14,UA,1678494023
525,samarai,-10.6167,150.6667,28.81,72,62,2.12,PG,1678494024
526,kaeo,-35.1,173.7833,24.07,68,4,3.61,NZ,1678494025
527,mananara,-16.1667,49.7667,23.58,91,100,2.13,MG,1678494026
528,luau,-10.7073,22.2247,17.92,98,99,1.6,AO,1678494026
529,shuiji,27.4214,118.345,16.39,44,18,0.87,CN,1678494027
530,shediac,46.2198,-64.5411,-2.73,68,0,4.12,CA,1678494028
531,domat,46.8348,9.4508,7.19,98,100,1.47,CH,1678494029
532,comodoro rivadavia,-45.8667,-67.5,22.92,38,0,3.09,AR,1678494030
533,tonj,7.2737,28.6822,27.4,26,67,1.15,SS,1678494031
534,salinopolis,-0.6136,-47.3561,25.0,91,99,3.41,BR,1678493750
535,timra,62.487,17.3257,-13.18,92,40,1.54,SE,1678494034
536,amahai,-3.3333,128.9167,27.71,75,80,0.54,ID,1678494034
537,calvinia,-31.4707,19.776,14.31,66,0,3.28,ZA,1678494035
538,jinchang,38.4953,102.1739,1.14,56,97,5.4,CN,1678494036
539,los llanos de aridane,28.6585,-17.9182,16.86,77,0,5.66,ES,1678494037
540,selma,36.5708,-119.6121,17.03,95,100,5.14,US,1678493841
541,san carlos de bariloche,-41.1456,-71.3082,15.86,41,40,8.75,AR,1678494033
542,pitimbu,-7.4706,-34.8086,27.33,76,27,4.79,BR,1678494038
543,palmer,42.1584,-72.3287,6.65,57,100,3.09,US,1678494039
544,aguimes,27.9054,-15.4461,18.35,68,20,8.75,ES,1678494040
545,yeppoon,-23.1333,150.7333,27.88,73,14,3.41,AU,1678494041
546,chipoka,-13.9933,34.5157,22.12,84,100,1.69,MW,1678494042
547,dingle,10.9995,122.6711,24.34,76,31,4.09,PH,1678494042
548,novaya lyada,52.7131,41.6387,-4.04,89,55,1.86,RU,1678494043
549,mehran,33.1222,46.1646,15.68,48,0,2.28,IR,1678494044
550,nantucket,41.2835,-70.0995,5.08,82,0,3.6,US,1678494045
551,cabadiangan,9.7531,122.4739,25.87,74,85,5.12,PH,1678494045
552,penzance,50.1186,-5.5371,4.38,95,100,10.47,GB,1678494046
553,hamilton,39.1834,-84.5333,3.97,83,100,4.12,US,1678493735
554,saldanha,-33.0117,17.9442,17.03,82,45,3.84,ZA,1678494047
555,marsa matruh,31.3525,27.2453,16.09,70,0,4.08,EG,1678494048
556,teahupoo,-17.8333,-149.2667,26.98,81,100,8.15,PF,1678494048
557,glazunovka,52.4986,36.3275,-2.79,91,100,4.96,RU,1678494049
558,aldan,58.6031,125.3894,-17.59,97,100,4.65,RU,1678494050
559,gobabis,-22.45,18.9667,24.46,15,95,4.62,NA,1678494050
560,okhotsk,59.3833,143.3,-13.45,92,100,1.76,RU,1678494051
561,dire dawa,9.5931,41.8661,20.65,71,69,0.3,ET,1678494051
562,praia,14.9215,-23.5087,24.3,53,0,7.2,CV,1678494052
563,umm lajj,25.0213,37.2685,21.36,38,0,5.6,SA,1678493846
564,mariental,-24.6333,17.9667,21.04,16,2,2.41,NA,1678494053
565,camana,-16.6228,-72.7111,23.78,81,77,3.3,PE,1678494054
